[
{
  "title" : "Gyros King",
  "address" : "Булевар патријарха Павла 5а",
  "comment_rs" : "",
  "comment_en" : "",
  "comment_ru" : "",
  "url" : "https://www.instagram.com/gyros_king_ns/",
  "lat" : 45.2396515,
  "lon" : 19.8205573,
  "gmap" : "https://maps.app.goo.gl/2prBWvWhUvbTuUsi8"
},
{
  "title" : "Biciklana 23",
  "address" : "Фрушкогорска 30",
  "comment_rs" : "",
  "comment_en" : "",
  "comment_ru" : "",
  "url" : "https://www.facebook.com/biciklana.ns/",
  "lat" : 45.2399804,
  "lon" : 19.8474436,
  "gmap" : "https://maps.app.goo.gl/CavpoFehTA2EfmVj8"
},
{
  "title" : "Le Bol",
  "address" : "Исе Бајића 6",
  "comment_rs" : "",
  "comment_en" : "",
  "comment_ru" : "",
  "url" : "https://www.lebol.rs/en/",
  "lat" : 45.2558185,
  "lon" : 19.8491643,
  "gmap" : "https://maps.app.goo.gl/ZGeY7DGU7X9dcEmy7"
},
{
  "title" : "Sweet & green",
  "address" : "Змај Јовина 10",
  "comment_rs" : "",
  "comment_en" : "",
  "comment_ru" : "",
  "url" : "https://sweetandgreens.com",
  "lat" : 45.2559413,
  "lon" : 19.8467555,
  "gmap" : "https://maps.app.goo.gl/QhqnETQ2Re74bQqB6"
},
{
  "title" : "Vege Vegan",
  "address" : "Јеврејска 16",
  "comment_rs" : "pasaž preko puta Sinagoge",
  "comment_en" : "passage opposite the synagogue",
  "comment_ru" : "проход напротив синагоги",
  "url" : "https://www.instagram.com/vegeveganorganicfood/",
  "lat" : 45.25366,
  "lon" : 19.8373253,
  "gmap" : "https://maps.app.goo.gl/79ahVUj1Zizx3JdeA"
},
{
  "title" : "Tokio Sushi",
  "address" : "Николе Пашића 1",
  "comment_rs" : "",
  "comment_en" : "",
  "comment_ru" : "",
  "url" : "https://tokiosushi.rs",
  "lat" : 45.2574002,
  "lon" : 19.8475502,
  "gmap" : "https://maps.app.goo.gl/fGu6xEiUggMVBKFb9"
},
{
  "title" : "Bulevar Books",
  "address" : "Булевар Михајла Пупина 6",
  "comment_rs" : "",
  "comment_en" : "",
  "comment_ru" : "",
  "url" : "https://www.facebook.com/BulevarBooks/",
  "lat" : 45.2531798,
  "lon" : 19.8453733,
  "gmap" : "https://maps.app.goo.gl/fR12cVywFvKwRyci7"
},
{
  "title" : "Fashion Cafe",
  "address" : "Булевар ослобођења 102",
  "comment_rs" : "Lokali na trecem spratu su nepusacki",
  "comment_en" : "Bars on the third floor are non-smoking",
  "comment_ru" : "Бары на третьем этаже предназначены для некурящих",
  "url" : "",
  "lat" : 45.243168,
  "lon" : 19.8408753,
  "gmap" : "https://maps.app.goo.gl/FEH7zfJ1PxTyc2Yg7"
},
{
  "title" : "BIG Novi Sad",
  "address" : "Сентандрејски пут 11",
  "comment_rs" : "Svi lokali unutar trznog centra su nepusacki",
  "comment_en" : "All shops inside the shopping center are non-smoking",
  "comment_ru" : "Все магазины внутри торгового центра предназначены для некурящих.",
  "url" : "",
  "lat" : 45.276412,
  "lon" : 19.826218,
  "gmap" : "https://maps.app.goo.gl/uFGTFP956eHj7cuP7"
},
{
  "title" : "Клуб културе Црна овца",
  "address" : "Краља Александра 10",
  "comment_rs" : "pasaž Kralja Aleksandra 10 na spratu",
  "comment_en" : "passage Kralja Aleksandar 10 on the floor",
  "comment_ru" : "проход Краля Александр 10 на этаже",
  "url" : "https://www.facebook.com/crna.ovca.novisad/	",
  "lat" : 45.2541283,
  "lon" : 19.8439026,
  "gmap" : "https://maps.app.goo.gl/tuED5eXmzTHyQV3y6"
},
{
  "title" : "Crni Ovan",
  "address" : "Илије Огњановића 2",
  "comment_rs" : "u pasažu",
  "comment_en" : "in the passage",
  "comment_ru" : "в проходе",
  "url" : "https://www.facebook.com/crniovan.ns/",
  "lat" : 45.2560476,
  "lon" : 19.8482954,
  "gmap" : "https://maps.app.goo.gl/GgjcxXXfLyT7ciK1A"
},
{
  "title" : "Izlet",
  "address" : "Дунавска 22",
  "comment_rs" : "kucica u parku. Mali lokal, sest stolova",
  "comment_en" : "a house in the park. Small bar, six tables",
  "comment_ru" : "дом в парке. Небольшой бар, шесть столов.",
  "url" : "https://www.instagram.com/_izlet",
  "lat" : 45.2560558,
  "lon" : 19.8516777,
  "gmap" : "https://maps.app.goo.gl/mVSj98bDzU9M5PJ3A"
},
{
  "title" : "Mipl",
  "address" : "Јосифа Руњанина 3",
  "comment_rs" : "Klub društvenih igara",
  "comment_en" : "Board game club",
  "comment_ru" : "Клуб настольных игр",
  "url" : "https://www.drustveneigre.rs",
  "lat" : 45.2504117,
  "lon" : 19.8369615,
  "gmap" : "https://maps.app.goo.gl/8juQqpdi93xENxGg6"
},
{
  "title" : "Block 32",
  "address" : "Булевар краља Петра I 32",
  "comment_rs" : "Možda ne radi ponedeljkom i vikendom popodne",
  "comment_en" : "May not be open on Monday and weekend afternoons",
  "comment_ru" : "Может быть закрыт во второй половине дня в понедельник и выходные дни.",
  "url" : "https://www.instagram.com/coffeeculture32/",
  "lat" : 45.2603789,
  "lon" : 19.830255,
  "gmap" : "https://maps.app.goo.gl/CZRdEotNtcd8Gu4LA"
},
{
  "title" : "S N I P P S T E R",
  "address" : "Бранка Бајића 26",
  "comment_rs" : "prodavnica za kucne ljubimce + kafe",
  "comment_en" : "pet store + coffee shop",
  "comment_ru" : "зоомагазин + кафе",
  "url" : "https://snippster.virtualtour.rs",
  "lat" : 45.256868,
  "lon" : 19.8195656,
  "gmap" : "https://maps.app.goo.gl/EJvmUScRtTGMX21t7"
},
{
  "title" : "tiho i toplo",
  "address" : "Словачка 9",
  "comment_rs" : "",
  "comment_en" : "",
  "comment_ru" : "",
  "url" : "https://www.instagram.com/tihotoplo",
  "lat" : 45.2569447,
  "lon" :19.8370437, 
  "gmap" : "https://maps.app.goo.gl/cqqhYS3kgeBjeRTr5"
},
{
  "title" : "Ananda",
  "address" : "Петра Драпшина 51",
  "comment_rs" : "radi do 18h. Deluje da je lokal veoma mali",
  "comment_en" : "works until 6 pm. It seems that the place is very small",
  "comment_ru" : "работает до 18:00. Кажется, что место очень маленькое",
  "url" : "https://ananda.rs",
  "lat" : 45.2493376,
  "lon" : 19.8395277,
  "gmap" : "https://maps.app.goo.gl/LWy8nb436JvX4wAP6"
},
{
  "title" : "Gabby Caffe & Bar",
  "address" : "Дунавска 2",
  "comment_rs" : "Mali lokal, 3 mala stola",
  "comment_en" : "Small bar, 3 small tables",
  "comment_ru" : "Небольшой бар, 3 маленьких столика.",
  "url" : "https://www.facebook.com/gabbycaffe/",
  "lat" : 45.2566629,
  "lon" : 19.8484749,
  "gmap" : "https://maps.app.goo.gl/3tgmvUL51PTva8Dq7"
},
{
  "title" : "Organic factory",
  "address" : "Народног фронта 21",
  "comment_rs" : "Radi do 15h",
  "comment_en" : "It works until 3 p.m",
  "comment_ru" : "Работает до 15:00",
  "url" : "https://organicfactory.business.site",
  "lat" : 45.2399028,
  "lon" : 19.8373791,
  "gmap" : "https://maps.app.goo.gl/w5URkWX6eS61d2g38"
},
{
  "title" : "Fresh food caffe 021",
  "address" : "Новосадског сајма 27",
  "comment_rs" : "",
  "comment_en" : "",
  "comment_ru" : "",
  "url" : "https://www.freshfoodcaffe.rs",
  "lat" : 45.2546769,
  "lon" : 19.8312481,
  "gmap" : "https://maps.app.goo.gl/kHMxN4Q59dy5FcGV8"
},
{
  "title" : "Fresh food 021",
  "address" : "Радничка 21",
  "comment_rs" : "Ima samo jedan sto",
  "comment_en" : "There is only one table",
  "comment_ru" : "Есть только один стол",
  "url" : "",
  "lat" : 45.2488206,
  "lon" : 19.8486284,
  "gmap" : "https://maps.app.goo.gl/zDqQ341Xw4vN86136"
},
{
  "title" : "Šećernema",
  "address" : "Петра Драпшина 57",
  "comment_rs" : "ima samo dva stola sa po dva mesta i par sank stolica",
  "comment_en" : "there are only two tables with two seats each and a couple of sunk chairs",
  "comment_ru" : "здесь всего два стола по два места каждый и пара утопленных стульев",
  "url" : "",
  "lat" : 45.2488201,
  "lon" : 19.8383287,
  "gmap" : "https://maps.app.goo.gl/FKimUvodA8nNTDsMA"
},
{
  "title" : "FREESHKA COFFEE Co.",
  "address" : "Булевар ослобођења 94",
  "comment_rs" : "kafa za poneti, ali može da se sedi i unutra (mali lokal, šank stolovi)",
  "comment_en" : "takeaway coffee, but you can also sit inside (small bar, bar tables)",
  "comment_ru" : "кофе на вынос, но можно и посидеть внутри (небольшой бар, барные столики)",
  "url" : "https://www.freeshkakafa.com",
  "lat" : 45.253099,
  "lon" : 19.8308395,
  "gmap" : "https://maps.app.goo.gl/h4o6uuLRZQJyxe8m7"
},
{
  "title" : "Plant Power",
  "address" : "Браће Рибникар 17",
  "comment_rs" : "mali veganski restoran",
  "comment_en" : "a small vegan restaurant",
  "comment_ru" : "небольшой веганский ресторан",
  "url" : "https://plantpower.rs/jelovnik/",
  "lat" : 45.2476305,
  "lon" : 19.8374348,
  "gmap" : "https://maps.app.goo.gl/qUN5h9UqfmTmeoAx9"
},
{
  "title" : "Macchiato Fax",
  "address" : "Стевана Мусића 20",
  "comment_rs" : "Donji sprat je nepusacki deo",
  "comment_en" : "The lower floor is a non-smoking area",
  "comment_ru" : "Нижний этаж – зона для некурящих.",
  "url" : "https://www.macchiato.rs/en/",
  "lat" : 45.2491578,
  "lon" : 19.8519947,
  "gmap" : "https://maps.app.goo.gl/49iWZM1TPaf3WTcL9"
},
{
  "title" : "Macchiato 12 apostola",
  "address" : "Милана Јешића Ибре 26",
  "comment_rs" : "Donji sprat je nepusacki deo",
  "comment_en" : "The lower floor is a non-smoking area",
  "comment_ru" : "Нижний этаж – зона для некурящих",
  "url" : "https://www.macchiato12apostola.rs",
  "lat" : 45.2582834,
  "lon" : 19.805955,
  "gmap" : "https://maps.app.goo.gl/WSLBNWcgkbZP3Ku38"
},
{
  "title" : "SPOT",
  "address" : "Лазе Костића",
  "comment_rs" : "mali lokal",
  "comment_en" : "small bar",
  "comment_ru" : "маленький бар",
  "url" : "",
  "lat" : 45.2476305,
  "lon" : 19.8374348,
  "gmap" : "https://maps.app.goo.gl/FikMFMtVd6QDPPYVA"
},
{
  "title" : "Bruno bar",
  "address" : "Цара Душана 57",
  "comment_rs" : "",
  "comment_en" : "",
  "comment_ru" : "",
  "url" : "https://www.instagram.com/brunobar.rs",
  "lat" : 45.2422504,
  "lon" : 19.8252851,
  "gmap" : "https://maps.app.goo.gl/RGFy6UGfibioUs1e9"
},
{
  "title" : "Čarolija Kafe",
  "address" : "Фрушкогорска 16A",
  "comment_rs" : "Nepusacki deo je u odvojenoj zgradi, u malom prostoru iza kafica u Fruskogorskoj",
  "comment_en" : "The non-smoking part is in a separate building, in a small area behind the cafes in Fruskogorska",
  "comment_ru" : "Некурящая часть находится в отдельном здании, на небольшой территории за кафе на Фрускогорской.",
  "url" : "https://www.carolijapeciva.rs",
  "lat" : 45.2419648,
  "lon" : 19.8440617,
  "gmap" : "https://maps.app.goo.gl/CSBT6cAJaTaQwry79"
},
{
  "title" : "Pizzeria Adrijana",
  "address" : "Змај Јовина 1",
  "comment_rs" : "Prednji deo lokala je nepušački",
  "comment_en" : "The front part of the bar is non-smoking",
  "comment_ru" : "Передняя часть бара предназначена для некурящих.",
  "url" : "",
  "lat" : 45.2541009,
  "lon" : 19.8393898,
  "gmap" : "https://maps.app.goo.gl/ooebbbuP7mqqQASe7"
},
{
  "title" : "Gondola",
  "address" : "Булевар Михајла Пупина 18",
  "comment_rs" : "Nepušački deo nije potpuno odvojen, ali je ventilacija dovoljno dobra da se dim ne oseti.",
  "comment_en" : "The non-smoking area is not completely separated, but the ventilation is good enough that the smoke is not felt.",
  "comment_ru" : "Зона для некурящих не полностью отделена, но вентиляция достаточно хорошая, поэтому дым не ощущается.",
  "url" : "http://gondola-restoran.rs",
  "lat" : 45.2537384,
  "lon" : 19.8505535,
  "gmap" : "https://maps.app.goo.gl/LyxJerdxbTB9obZX7"
},
{
  "title" : "Сценарио",
  "address" : "Futoski Park, Хајдук Вељкова 11a",
  "comment_rs" : "Ima odvojenu nepušačku zonu",
  "comment_en" : "It has a separate non-smoking area",
  "comment_ru" : "Имеется отдельная зона для некурящих.",
  "url" : "https://scenariocaffe.com",
  "lat" : 45.2517751,
  "lon" : 19.8247352,
  "gmap" : "https://maps.app.goo.gl/WtZtaVZrUv2TwUQu8"
},
{
  "title" : "Loft Boulevard",
  "address" : "Булевар ослобођења 63",
  "comment_rs" : "Unutra je nepušački, bašta pušačka",
  "comment_en" : "It is non-smoking inside, the garden is smoking",
  "comment_ru" : "Внутри не курят, курят в саду.",
  "url" : "",
  "lat" : 45.2583161,
  "lon" : 19.8150764,
  "gmap" : "https://maps.app.goo.gl/zPBhEeA89DZBVdMt5"
},
{
  "title" : "Rosetto",
  "address" : "Булевар патријарха Павла 14a",
  "comment_rs" : "ima odvojenu nepusacku zonu",
  "comment_en" : "has a separate no-smoking zone",
  "comment_ru" : "есть отдельная зона для некурящих",
  "url" : "https://www.rosetto.rs",
  "lat" : 45.2583161,
  "lon" : 19.8150764,
  "gmap" : "https://maps.app.goo.gl/znWADyHDNmohFQ7e8"
}
]